City_ID,City,Country,Date,Lat,Lng,Max Temp,Humidity,Cloudiness,Wind Speed,Current Description
0,Anchorage,US,2020-08-25 05:56:53,61.22,-149.9,57.2,87,75,4.7,light rain
1,Okhtyrka,UA,2020-08-25 06:00:02,50.31,34.9,71.08,44,79,8.21,broken clouds
2,Okakarara,NA,2020-08-25 06:00:03,-20.58,17.43,57.52,36,0,5.14,clear sky
3,Hilo,US,2020-08-25 05:53:44,19.73,-155.09,80.6,69,75,4.7,broken clouds
4,Kushima,JP,2020-08-25 06:00:04,31.46,131.23,91.4,70,20,14.99,shower rain
5,Bismarck,US,2020-08-25 05:54:38,46.81,-100.78,68.0,82,1,3.36,clear sky
6,Hermanus,ZA,2020-08-25 05:53:22,-34.42,19.23,46.0,94,83,5.88,broken clouds
7,Longyearbyen,SJ,2020-08-25 05:53:25,78.22,15.64,39.2,80,20,4.7,few clouds
8,Tasgaon,IN,2020-08-25 06:00:05,17.03,74.6,81.57,68,62,13.04,broken clouds
9,Vaini,TO,2020-08-25 05:53:24,-21.2,-175.2,77.0,88,20,4.7,few clouds
10,Saint-Philippe,RE,2020-08-25 05:54:05,-21.36,55.77,75.2,64,39,6.93,scattered clouds
11,Colac,AU,2020-08-25 05:55:12,-38.33,143.58,54.0,89,57,6.44,broken clouds
12,Quatre Cocos,MU,2020-08-25 05:55:12,-20.21,57.76,73.99,69,75,14.99,shower rain
13,Ushuaia,AR,2020-08-25 05:49:19,-54.8,-68.3,32.0,90,75,2.24,broken clouds
14,Lavrentiya,RU,2020-08-25 05:53:31,65.58,-171.0,48.09,90,87,3.24,overcast clouds
15,Barrow,US,2020-08-25 05:53:23,71.29,-156.79,42.8,87,90,5.82,overcast clouds
16,Jamestown,US,2020-08-25 05:53:36,42.1,-79.24,73.99,83,20,8.05,few clouds
17,Severo-Kurilsk,RU,2020-08-25 05:54:04,50.68,156.12,56.35,80,40,7.02,scattered clouds
18,Busselton,AU,2020-08-25 05:53:29,-33.65,115.33,68.0,35,46,6.06,scattered clouds
19,Punta Arenas,CL,2020-08-25 05:53:24,-53.15,-70.92,32.0,88,0,12.75,clear sky
20,Puerto Ayora,EC,2020-08-25 05:53:45,-0.74,-90.35,66.99,88,80,9.48,broken clouds
21,Sao Joao Da Ponte,BR,2020-08-25 06:00:08,-15.93,-44.01,55.74,84,0,6.26,clear sky
22,Nikolskoye,RU,2020-08-25 05:53:29,59.7,30.79,60.8,77,16,6.71,few clouds
23,Neyvo-Shaytanskiy,RU,2020-08-25 06:00:08,57.73,61.25,61.93,83,100,8.97,light rain
24,Ixtapa,MX,2020-08-25 05:53:41,20.7,-105.2,82.4,78,90,0.87,overcast clouds
25,Kapaa,US,2020-08-25 05:53:30,22.08,-159.32,80.6,74,40,11.41,scattered clouds
26,Chokurdakh,RU,2020-08-25 05:54:04,70.63,147.92,44.31,61,75,7.36,broken clouds
27,Saquena,PE,2020-08-25 06:00:09,-4.67,-73.52,70.74,78,17,1.9,few clouds
28,Kruisfontein,ZA,2020-08-25 05:56:33,-34.0,24.73,56.35,89,100,4.32,overcast clouds
29,Adrar,MR,2020-08-25 05:53:56,20.5,-10.07,88.7,40,0,18.52,clear sky
30,Tres Lagoas,BR,2020-08-25 06:00:09,-20.75,-51.68,65.39,47,0,10.29,clear sky
31,Rikitea,PF,2020-08-25 05:53:29,-23.12,-134.97,71.87,86,0,10.36,light rain
32,Mataura,NZ,2020-08-25 05:53:31,-46.19,168.86,45.0,72,82,11.01,light rain
33,Castro,BR,2020-08-25 05:53:34,-24.79,-50.01,45.3,95,40,8.21,scattered clouds
34,Bonavista,CA,2020-08-25 06:00:10,48.65,-53.11,55.0,87,52,5.01,broken clouds
35,Timaru,NZ,2020-08-25 06:00:10,-44.4,171.25,46.99,50,88,8.01,overcast clouds
36,Cidreira,BR,2020-08-25 05:54:26,-30.18,-50.21,61.18,77,57,21.85,broken clouds
37,Charlestown,AU,2020-08-25 06:00:11,-32.95,151.67,60.01,59,14,7.65,few clouds
38,Riyadh,SA,2020-08-25 05:52:11,24.69,46.72,95.0,17,48,4.7,scattered clouds
39,Cabra,ES,2020-08-25 06:00:11,37.47,-4.44,72.0,70,27,2.37,scattered clouds
40,Dikson,RU,2020-08-25 05:53:34,73.51,80.55,48.56,88,94,3.04,overcast clouds
41,Kirakira,SB,2020-08-25 06:00:12,-10.45,161.92,83.62,72,12,7.18,light rain
42,Cape Town,ZA,2020-08-25 05:52:14,-33.93,18.42,52.0,93,69,5.82,broken clouds
43,Bluff,NZ,2020-08-25 05:53:22,-46.6,168.33,45.0,72,74,11.01,light rain
44,Kapit,MY,2020-08-25 05:57:45,2.02,112.93,93.11,53,53,0.89,light rain
45,Bredasdorp,ZA,2020-08-25 05:53:25,-34.53,20.04,53.6,93,99,5.82,overcast clouds
46,Sao Filipe,CV,2020-08-25 05:54:22,14.9,-24.5,77.32,80,31,1.72,scattered clouds
47,Ponta Do Sol,PT,2020-08-25 05:54:27,32.67,-17.1,71.6,68,40,14.99,scattered clouds
48,San Vicente,AR,2020-08-25 05:59:36,-26.62,-54.13,57.51,88,8,4.07,clear sky
49,Souillac,MU,2020-08-25 05:54:01,-20.52,57.52,73.4,69,75,14.99,shower rain
50,Broome,US,2020-08-25 05:54:35,42.25,-75.83,68.0,88,1,6.93,clear sky
51,Lively,CA,2020-08-25 06:00:14,46.43,-81.15,66.99,93,20,8.05,few clouds
52,Qaanaaq,GL,2020-08-25 05:53:26,77.48,-69.36,33.24,93,100,7.43,overcast clouds
53,Port Alfred,ZA,2020-08-25 05:53:24,-33.59,26.89,63.1,77,100,17.63,overcast clouds
54,Simpsonville,US,2020-08-25 06:00:15,34.74,-82.25,73.4,100,1,1.97,clear sky
55,New Norfolk,AU,2020-08-25 05:53:47,-42.78,147.06,57.0,70,68,3.0,broken clouds
56,Hamilton,US,2020-08-25 05:52:43,39.18,-84.53,78.01,78,1,5.82,clear sky
57,Bengkulu,ID,2020-08-25 05:53:49,-3.8,102.27,88.75,50,97,8.99,overcast clouds
58,Barmer,IN,2020-08-25 06:00:15,25.75,71.38,79.63,84,100,10.56,light rain
59,Upernavik,GL,2020-08-25 05:53:38,72.79,-56.15,42.66,87,100,6.04,overcast clouds
60,Vila Franca Do Campo,PT,2020-08-25 05:53:41,37.72,-25.43,73.4,88,40,8.05,scattered clouds
61,Carnarvon,AU,2020-08-25 05:49:57,-24.87,113.63,73.4,49,0,18.34,clear sky
62,Hobart,AU,2020-08-25 05:52:45,-42.88,147.33,57.0,54,75,10.29,broken clouds
63,Mazara Del Vallo,IT,2020-08-25 06:00:16,37.66,12.59,71.6,88,40,5.82,scattered clouds
64,Faya,SA,2020-08-25 05:53:53,18.39,42.45,75.2,49,19,5.82,few clouds
65,Yueyang,CN,2020-08-25 06:00:17,29.33,113.09,77.4,87,100,8.23,overcast clouds
66,Olinda,BR,2020-08-25 05:54:59,-8.01,-34.86,69.8,83,20,2.24,few clouds
67,Enshi,CN,2020-08-25 06:00:17,30.3,109.48,88.99,46,99,2.04,overcast clouds
68,Mahibadhoo,MV,2020-08-25 06:00:17,3.78,72.97,83.7,74,28,12.01,scattered clouds
69,Namibe,AO,2020-08-25 05:55:23,-15.2,12.15,64.71,93,41,1.61,scattered clouds
70,Cherskiy,RU,2020-08-25 05:53:44,68.75,161.3,40.03,94,100,3.09,overcast clouds
71,Tasiilaq,GL,2020-08-25 05:53:59,65.61,-37.64,37.4,90,31,1.74,scattered clouds
72,Fort Walton Beach,US,2020-08-25 05:55:30,30.41,-86.62,80.01,100,90,3.36,moderate rain
73,Arlit,NE,2020-08-25 06:00:18,18.74,7.39,86.45,53,54,14.38,light rain
74,San Patricio,MX,2020-08-25 05:53:37,19.22,-104.7,79.38,86,35,2.37,scattered clouds
75,Virginia Beach,US,2020-08-25 05:56:17,36.85,-75.98,80.01,86,100,1.01,overcast clouds
76,Ancud,CL,2020-08-25 05:55:17,-41.87,-73.82,41.0,93,90,5.82,overcast clouds
77,Avarua,CK,2020-08-25 05:48:41,-21.21,-159.78,71.6,78,60,4.7,broken clouds
78,Albany,US,2020-08-25 05:53:35,42.6,-73.97,72.0,89,16,3.78,light rain
79,Kyabe,TD,2020-08-25 06:00:20,9.45,18.94,71.15,97,100,5.57,heavy intensity rain
80,Hokitika,NZ,2020-08-25 05:53:32,-42.72,170.97,50.76,86,5,3.29,moderate rain
81,Padang,ID,2020-08-25 05:59:52,-0.95,100.35,86.0,67,56,5.97,light rain
82,Thinadhoo,MV,2020-08-25 05:56:36,0.53,72.93,83.79,69,62,6.8,broken clouds
83,Bassano,CA,2020-08-25 06:00:20,50.78,-112.47,62.01,70,100,10.0,overcast clouds
84,Lahij,YE,2020-08-25 06:00:21,13.17,44.58,87.51,55,17,7.05,light rain
85,Muros,ES,2020-08-25 05:59:45,42.78,-9.06,57.99,88,16,0.96,few clouds
86,Saraland,US,2020-08-25 06:00:21,30.82,-88.07,77.0,94,85,11.99,overcast clouds
87,Sambava,MG,2020-08-25 05:55:15,-14.27,50.17,75.78,71,74,9.8,broken clouds
88,Lokosovo,RU,2020-08-25 06:00:22,61.13,74.82,61.65,70,62,2.04,light rain
89,Torbay,CA,2020-08-25 05:54:00,47.67,-52.73,57.0,93,90,8.05,overcast clouds
90,Ibotirama,BR,2020-08-25 05:56:06,-12.19,-43.22,67.03,72,7,1.9,clear sky
91,Verdun,FR,2020-08-25 06:00:22,49.25,5.33,55.99,81,61,1.01,broken clouds
92,Chuy,UY,2020-08-25 05:53:28,-33.7,-53.46,56.95,88,63,10.83,broken clouds
93,Ribeira Grande,PT,2020-08-25 05:53:33,38.52,-28.7,73.69,92,40,14.61,scattered clouds
94,Oistins,BB,2020-08-25 05:53:40,13.07,-59.53,82.4,78,40,13.87,scattered clouds
95,Tiksi,RU,2020-08-25 05:54:20,71.69,128.87,41.63,70,11,13.87,few clouds
96,Ransang,PH,2020-08-25 06:00:23,8.96,117.58,90.0,57,74,3.11,broken clouds
97,Pisco,PE,2020-08-25 05:55:29,-13.7,-76.22,59.0,87,16,1.12,few clouds
98,Saint George,US,2020-08-25 05:54:17,37.1,-113.58,89.6,19,1,0.45,light rain
99,Santiago De Cao,PE,2020-08-25 05:53:50,-7.96,-79.24,59.7,90,37,8.86,scattered clouds
100,Geraldton,AU,2020-08-25 05:53:26,-28.77,114.6,68.0,56,0,14.99,clear sky
101,Pundaguitan,PH,2020-08-25 05:57:05,6.37,126.17,84.88,71,99,11.34,overcast clouds
102,Dumas,US,2020-08-25 06:00:24,35.87,-101.97,75.99,46,1,10.29,clear sky
103,Bubaque,GW,2020-08-25 05:54:08,11.28,-15.83,80.08,82,89,11.95,moderate rain
104,Atuona,PF,2020-08-25 05:53:27,-9.8,-139.03,78.57,76,8,14.09,clear sky
105,Banyo,CM,2020-08-25 06:00:25,6.75,11.82,62.89,92,100,1.57,overcast clouds
106,Saint-Pierre,RE,2020-08-25 05:54:26,-21.34,55.48,75.2,64,0,6.93,clear sky
107,Kodiak,US,2020-08-25 05:53:38,57.79,-152.41,60.8,55,90,8.05,overcast clouds
108,Georgetown,MY,2020-08-25 05:53:49,5.41,100.34,91.4,62,20,8.05,few clouds
109,Urumqi,CN,2020-08-25 06:00:26,43.8,87.6,100.4,17,49,4.47,scattered clouds
110,Reconquista,AR,2020-08-25 05:57:10,-29.15,-59.65,74.23,57,100,11.56,overcast clouds
111,Thompson,CA,2020-08-25 05:53:57,55.74,-97.86,48.2,87,90,2.24,overcast clouds
112,Arraial Do Cabo,BR,2020-08-25 05:54:00,-22.97,-42.03,66.2,59,40,5.82,scattered clouds
113,Ambon,ID,2020-08-25 06:00:26,-3.7,128.18,80.26,78,24,18.34,few clouds
114,Nemuro,JP,2020-08-25 05:57:38,43.32,145.57,69.8,88,75,3.36,broken clouds
115,Grindavik,IS,2020-08-25 05:53:44,63.84,-22.43,44.6,100,40,4.7,fog
116,Rudnogorsk,RU,2020-08-25 06:00:27,57.26,103.75,62.11,75,100,5.21,light rain
117,Port Blair,IN,2020-08-25 05:54:30,11.67,92.75,86.29,69,88,8.39,overcast clouds
118,Sangar,RU,2020-08-25 06:00:28,63.92,127.47,61.7,31,0,1.72,clear sky
119,Hithadhoo,MV,2020-08-25 05:53:30,-0.6,73.08,83.5,66,88,3.89,light rain
120,Urusha,RU,2020-08-25 06:00:28,54.05,122.9,53.82,96,100,4.54,light rain
121,Cadillac,US,2020-08-25 06:00:26,44.25,-85.4,71.6,88,40,5.82,scattered clouds
122,Port-Gentil,GA,2020-08-25 05:54:22,-0.72,8.78,77.0,94,75,9.91,light rain
123,Ibate,BR,2020-08-25 06:00:29,-21.95,-48.0,51.17,84,2,7.09,clear sky
124,Laguna,US,2020-08-25 05:53:54,38.42,-121.42,79.0,47,1,8.05,haze
125,College,US,2020-08-25 05:55:11,64.86,-147.8,60.8,77,75,4.7,broken clouds
126,Leningradskiy,RU,2020-08-25 05:54:11,69.38,178.42,42.35,91,100,8.55,overcast clouds
127,Mitu,CO,2020-08-25 05:58:23,1.2,-70.17,71.38,85,91,1.63,overcast clouds
128,Port Hardy,CA,2020-08-25 05:53:46,50.7,-127.42,53.6,87,20,5.82,few clouds
129,Provideniya,RU,2020-08-25 05:53:36,64.38,-173.3,53.6,76,90,4.47,light intensity shower rain
130,Ampanihy,MG,2020-08-25 06:00:30,-24.7,44.75,74.86,60,0,2.77,clear sky
131,Shuiji,CN,2020-08-25 06:00:30,27.42,118.34,96.73,47,11,3.02,light rain
132,Esperance,AU,2020-08-25 05:53:54,-33.87,121.9,64.4,68,57,4.7,broken clouds
133,Katsuura,JP,2020-08-25 05:54:22,35.13,140.3,90.0,61,0,5.99,clear sky
134,Kaitangata,NZ,2020-08-25 05:53:30,-46.28,169.85,43.0,55,43,4.0,scattered clouds
135,Otjiwarongo,NA,2020-08-25 06:00:31,-20.46,16.65,61.79,29,1,8.01,clear sky
136,Tarko-Sale,RU,2020-08-25 06:00:31,64.92,77.78,64.0,76,21,5.48,few clouds
137,Morki,RU,2020-08-25 06:00:32,56.43,48.99,64.11,88,99,8.32,light rain
138,Kuryk,KZ,2020-08-25 06:00:32,43.2,51.65,73.74,44,0,3.94,clear sky
139,Port Elizabeth,ZA,2020-08-25 05:53:37,-33.92,25.57,60.8,100,75,16.11,broken clouds
140,Beyneu,KZ,2020-08-25 05:55:45,45.32,55.2,78.89,27,42,2.77,scattered clouds
141,Puerto Narino,CO,2020-08-25 06:00:32,-3.77,-70.38,68.0,100,75,1.81,broken clouds
142,Paamiut,GL,2020-08-25 05:53:34,61.99,-49.67,42.19,75,0,9.46,clear sky
143,Taiobeiras,BR,2020-08-25 05:56:55,-15.81,-42.23,50.68,91,0,1.52,clear sky
144,Sonoita,MX,2020-08-25 06:00:33,31.85,-112.83,89.01,37,100,2.57,overcast clouds
145,Kiruna,SE,2020-08-25 06:00:33,67.86,20.23,41.0,93,67,8.05,broken clouds
146,Kedrovyy,RU,2020-08-25 05:54:43,56.17,91.82,68.0,56,23,6.71,light rain
147,Iqaluit,CA,2020-08-25 05:53:35,63.75,-68.51,44.6,70,90,10.29,overcast clouds
148,Ilulissat,GL,2020-08-25 05:54:40,69.22,-51.1,39.2,93,90,2.24,mist
149,Nome,US,2020-08-25 05:50:18,64.5,-165.41,53.6,81,75,4.7,broken clouds
150,Kavieng,PG,2020-08-25 05:53:58,-2.57,150.8,83.77,69,10,8.37,clear sky
151,Bambous Virieux,MU,2020-08-25 05:53:31,-20.34,57.76,73.99,69,75,14.99,shower rain
152,Borovskoy,KZ,2020-08-25 06:00:35,53.8,64.15,67.19,61,1,9.8,clear sky
153,Constitucion,CL,2020-08-25 05:53:47,-35.33,-72.42,51.76,87,79,18.86,light rain
154,Yumen,CN,2020-08-25 05:55:53,40.28,97.2,93.24,11,0,12.62,clear sky
155,Rawson,AR,2020-08-25 05:53:39,-43.3,-65.1,45.19,78,16,20.56,few clouds
156,Mar Del Plata,AR,2020-08-25 05:53:45,-38.0,-57.56,57.0,93,90,15.03,mist
157,Dunedin,NZ,2020-08-25 05:52:24,-45.87,170.5,41.0,80,54,4.0,broken clouds
158,Mahebourg,MU,2020-08-25 05:53:42,-20.41,57.7,73.4,69,75,14.99,shower rain
159,San Quintin,MX,2020-08-25 06:00:36,30.48,-115.95,72.48,85,5,13.29,clear sky
160,Vizinga,RU,2020-08-25 06:00:37,61.07,50.1,62.87,87,87,5.59,light rain
161,Yulara,AU,2020-08-25 05:54:57,-25.24,130.99,87.8,12,0,5.82,clear sky
162,Quesnel,CA,2020-08-25 06:00:37,53.0,-122.5,57.2,82,90,2.24,overcast clouds
163,Plunge,LT,2020-08-25 06:00:37,55.91,21.84,57.2,100,75,8.05,thunderstorm with light rain
164,Mumbwa,ZM,2020-08-25 06:00:38,-14.98,27.06,67.87,45,29,8.23,scattered clouds
165,Te Anau,NZ,2020-08-25 05:57:20,-45.42,167.72,37.58,80,56,4.29,broken clouds
166,Yerbogachen,RU,2020-08-25 05:49:01,61.28,108.01,65.73,39,1,9.98,clear sky
167,Ebnat-Kappel,CH,2020-08-25 06:00:38,47.26,9.12,57.0,74,8,3.74,clear sky
168,Ust-Ishim,RU,2020-08-25 06:00:38,57.69,71.17,64.04,63,25,8.12,scattered clouds
169,Mezen,RU,2020-08-25 06:00:39,65.85,44.24,60.94,81,18,4.97,few clouds
170,Burnie,AU,2020-08-25 05:55:09,-41.07,145.92,55.99,50,67,17.0,broken clouds
171,Yellowknife,CA,2020-08-25 05:54:02,62.46,-114.35,55.4,82,75,9.17,broken clouds
172,Lebu,CL,2020-08-25 05:53:32,-37.62,-73.65,51.58,89,71,20.6,light rain
173,Vardo,NO,2020-08-25 05:53:59,70.37,31.11,51.8,76,75,2.24,shower rain
174,Trairi,BR,2020-08-25 05:58:17,-3.28,-39.27,76.84,79,39,11.1,scattered clouds
175,Wamba,NG,2020-08-25 06:00:40,8.93,8.6,68.68,92,94,2.93,overcast clouds
176,Ceyhan,TR,2020-08-25 05:57:31,37.02,35.82,82.4,61,75,3.36,broken clouds
177,Kutum,SD,2020-08-25 05:57:23,14.2,24.67,72.86,69,99,4.03,overcast clouds
178,Chibuto,MZ,2020-08-25 06:00:41,-24.69,33.53,69.35,61,0,8.48,clear sky
179,Tuktoyaktuk,CA,2020-08-25 05:53:28,69.45,-133.04,48.2,100,90,6.93,fog
180,Bambanglipuro,ID,2020-08-25 06:00:41,-7.95,110.28,86.72,58,0,19.42,clear sky
181,Ligayan,PH,2020-08-25 06:00:41,4.65,119.47,85.3,65,41,6.46,scattered clouds
182,Clyde River,CA,2020-08-25 05:55:28,70.47,-68.59,37.72,91,76,3.51,broken clouds
183,Pilar,BR,2020-08-25 06:00:42,-9.6,-35.96,66.2,100,5,4.7,clear sky
184,Sitka,US,2020-08-25 05:51:13,57.05,-135.33,55.4,82,90,10.29,overcast clouds
185,Aklavik,CA,2020-08-25 05:55:25,68.22,-135.01,60.8,72,20,3.36,few clouds
186,Prainha,BR,2020-08-25 05:59:50,-1.8,-53.48,72.14,97,96,2.48,light rain
187,Hornepayne,CA,2020-08-25 06:00:43,49.21,-84.77,54.81,91,62,5.57,broken clouds
188,Blagoyevo,RU,2020-08-25 05:59:45,63.37,47.92,64.35,69,23,6.24,few clouds
189,Balabac,PH,2020-08-25 06:00:43,7.99,117.06,86.61,69,74,13.82,broken clouds
190,Shulan,CN,2020-08-25 06:00:43,44.42,126.95,78.26,67,69,5.53,broken clouds
191,Clarence Town,AU,2020-08-25 05:55:19,-32.58,151.78,60.01,47,40,9.17,scattered clouds
192,Victoria,HK,2020-08-25 05:53:39,22.29,114.16,95.0,50,20,13.87,few clouds
193,Margate,GB,2020-08-25 05:54:43,51.38,1.39,62.01,90,100,7.0,light rain
194,Cody,US,2020-08-25 06:00:44,44.53,-109.06,75.2,33,1,7.72,clear sky
195,Half Moon Bay,US,2020-08-25 05:54:09,37.46,-122.43,64.99,93,75,5.82,broken clouds
196,Badulla,LK,2020-08-25 05:57:32,6.99,81.06,87.06,45,97,3.71,overcast clouds
197,Totness,SR,2020-08-25 05:55:13,5.88,-56.32,78.08,87,25,8.05,scattered clouds
198,Lompoc,US,2020-08-25 05:54:53,34.64,-120.46,64.4,88,1,4.27,clear sky
199,Kosh-Agach,RU,2020-08-25 06:00:45,50.0,88.67,65.23,42,99,17.29,overcast clouds
200,Bitkine,TD,2020-08-25 05:54:24,11.98,18.21,71.91,94,100,10.33,light rain
201,Klaksvik,FO,2020-08-25 05:53:38,62.23,-6.59,42.8,93,78,8.05,broken clouds
202,Morgan Hill,US,2020-08-25 05:55:48,37.13,-121.65,63.0,82,90,9.17,overcast clouds
203,Narsaq,GL,2020-08-25 05:54:51,60.92,-46.05,41.0,80,24,2.24,few clouds
204,Malkangiri,IN,2020-08-25 06:00:46,18.35,81.9,86.52,72,93,5.14,moderate rain
205,Manjacaze,MZ,2020-08-25 06:00:46,-24.71,33.88,69.67,64,0,8.81,clear sky
206,Cam Ranh,VN,2020-08-25 06:00:47,11.92,109.16,100.4,45,20,12.75,few clouds
207,Firozpur,IN,2020-08-25 06:00:47,30.92,74.6,89.6,66,40,5.82,smoke
208,San Cristobal,VE,2020-08-25 05:55:27,7.77,-72.22,64.56,90,99,2.55,overcast clouds
209,Bani Walid,LY,2020-08-25 06:00:47,31.76,13.99,72.36,66,0,10.33,clear sky
210,Rio Gallegos,AR,2020-08-25 05:55:02,-51.62,-69.22,30.2,86,0,10.29,clear sky
211,Okhotsk,RU,2020-08-25 05:53:43,59.38,143.3,57.42,75,70,20.0,light rain
212,Iranshahr,IR,2020-08-25 06:00:48,27.2,60.68,93.2,46,75,6.93,broken clouds
213,Kendari,ID,2020-08-25 06:00:48,-3.94,122.5,84.0,61,47,8.59,scattered clouds
214,Shakawe,BW,2020-08-25 06:00:48,-18.37,21.85,64.17,35,0,8.43,clear sky
215,Santa Rosa,PH,2020-08-25 06:00:48,14.31,121.11,91.0,66,7,17.22,clear sky
216,Roald,NO,2020-08-25 05:53:36,62.58,6.13,51.8,76,75,14.99,broken clouds
217,Atambua,ID,2020-08-25 06:00:49,-9.11,124.89,83.97,36,0,5.93,clear sky
218,Guerrero Negro,MX,2020-08-25 05:53:58,27.98,-114.06,72.88,83,0,16.75,clear sky
219,Saskylakh,RU,2020-08-25 05:54:15,71.92,114.08,61.52,46,95,14.34,overcast clouds
220,Sakakah,SA,2020-08-25 06:00:49,29.97,40.21,86.0,16,0,4.7,clear sky
221,Maua,BR,2020-08-25 06:00:50,-23.67,-46.46,52.0,93,20,3.36,few clouds
222,Aginskoye,RU,2020-08-25 06:00:50,51.1,114.53,66.22,56,28,7.65,scattered clouds
223,Saint Pete Beach,US,2020-08-25 06:00:50,27.73,-82.74,82.4,88,1,19.46,clear sky
224,Lorengau,PG,2020-08-25 05:55:03,-2.02,147.27,81.81,81,76,10.8,light rain
225,Young,UY,2020-08-25 06:00:50,-32.68,-57.63,66.0,65,100,4.0,overcast clouds
226,Kijang,KR,2020-08-25 05:57:44,35.24,129.21,95.0,47,75,6.93,broken clouds
227,Kinablangan,PH,2020-08-25 06:00:51,7.69,126.55,86.99,68,36,7.54,scattered clouds
228,Praia,CV,2020-08-25 05:53:45,14.92,-23.51,78.8,88,40,3.36,scattered clouds
229,Baoding,CN,2020-08-25 05:54:37,38.85,115.49,90.64,47,92,1.9,overcast clouds
230,Serebryansk,KZ,2020-08-25 06:00:51,49.69,83.29,69.8,73,75,2.24,broken clouds
231,Curup,ID,2020-08-25 06:00:52,-3.47,102.53,84.2,39,99,5.68,overcast clouds
232,Ustrzyki Dolne,PL,2020-08-25 06:00:52,49.43,22.59,57.99,94,98,1.99,light rain
233,Belmonte,BR,2020-08-25 05:56:41,-15.86,-38.88,60.8,87,30,6.93,scattered clouds
234,Lubango,AO,2020-08-25 06:00:52,-14.92,13.49,60.89,57,0,2.15,clear sky
235,Norman Wells,CA,2020-08-25 05:53:45,65.28,-126.83,59.0,67,40,5.82,scattered clouds
236,Balkhash,KZ,2020-08-25 06:00:53,46.84,74.98,71.6,43,40,22.37,scattered clouds
237,Khatanga,RU,2020-08-25 05:54:05,71.97,102.5,69.13,47,40,6.58,scattered clouds
238,Gushikawa,JP,2020-08-25 05:54:33,26.35,127.87,86.0,84,40,17.22,heavy intensity drizzle
239,Banjar,ID,2020-08-25 05:54:38,-8.19,114.97,84.2,74,40,11.41,scattered clouds
240,Roanoke,US,2020-08-25 06:00:54,37.27,-79.94,75.2,78,1,9.17,clear sky
241,Astana,KZ,2020-08-25 06:00:46,51.18,71.45,64.4,55,75,6.71,broken clouds
242,Kathmandu,NP,2020-08-25 05:59:36,27.72,85.32,82.4,74,75,2.24,broken clouds
243,Huarmey,PE,2020-08-25 06:00:55,-10.07,-78.15,59.47,85,19,9.04,few clouds
244,Akmene,LT,2020-08-25 06:00:55,56.25,22.75,59.0,93,75,3.36,broken clouds
245,Porto Novo,BJ,2020-08-25 05:53:05,6.5,2.6,75.2,94,90,9.17,overcast clouds
246,Hasaki,JP,2020-08-25 05:55:04,35.73,140.83,93.0,66,40,8.05,scattered clouds
247,Horsham,GB,2020-08-25 06:00:56,51.06,-0.33,60.8,87,40,11.41,light rain
248,Fallon,US,2020-08-25 06:00:56,39.47,-118.78,79.0,44,75,5.82,broken clouds
249,Kandrian,PG,2020-08-25 06:00:56,-6.22,149.55,79.79,84,94,8.39,light rain
250,Civitanova Marche,IT,2020-08-25 06:00:56,43.31,13.72,71.6,83,6,2.24,clear sky
251,Muhororo,UG,2020-08-25 06:00:56,0.94,30.76,69.44,84,64,1.52,broken clouds
252,Faanui,PF,2020-08-25 05:53:34,-16.48,-151.75,77.16,82,8,19.39,light rain
253,East London,ZA,2020-08-25 05:53:37,-33.02,27.91,59.0,93,100,9.17,overcast clouds
254,Dutlwe,BW,2020-08-25 06:00:57,-23.98,23.9,61.36,33,0,8.88,clear sky
255,Atar,MR,2020-08-25 05:58:11,20.52,-13.05,82.27,52,0,11.5,clear sky
256,Mananjary,MG,2020-08-25 06:00:57,-21.22,48.33,73.71,72,62,6.78,broken clouds
257,Los Llanos De Aridane,ES,2020-08-25 05:53:29,28.66,-17.92,80.01,78,15,12.75,few clouds
258,Lisala,CD,2020-08-25 06:00:58,2.15,21.52,71.76,94,98,0.96,overcast clouds
259,Bowen,AU,2020-08-25 06:00:58,-20.02,148.23,75.2,47,9,16.11,clear sky
260,San Ramon,US,2020-08-25 06:00:59,37.78,-121.98,75.0,64,1,9.17,smoke
261,Northam,GB,2020-08-25 05:55:20,51.03,-4.22,63.0,95,100,18.99,light rain
262,Bethel,US,2020-08-25 05:54:03,41.37,-73.41,73.4,78,1,4.7,clear sky
263,Rock Sound,BS,2020-08-25 06:00:59,24.9,-76.2,83.14,81,3,14.81,clear sky
264,Touros,BR,2020-08-25 05:54:57,-5.2,-35.46,68.0,100,6,4.7,clear sky
265,Oranjemund,NA,2020-08-25 05:53:41,-28.55,16.43,51.42,90,0,1.41,clear sky
266,Sechura,PE,2020-08-25 05:54:49,-5.56,-80.82,60.62,83,0,8.68,clear sky
267,Vostok,RU,2020-08-25 06:01:00,46.49,135.88,58.86,99,100,4.88,overcast clouds
268,Pangnirtung,CA,2020-08-25 05:55:12,66.15,-65.71,45.01,84,100,1.66,light rain
269,Whitefish,US,2020-08-25 06:01:01,48.41,-114.34,71.6,43,1,6.93,smoke
270,Sorong,ID,2020-08-25 06:01:01,-0.88,131.25,82.85,79,43,12.15,moderate rain
271,Izumo,JP,2020-08-25 06:01:01,35.37,132.77,93.2,59,20,12.75,few clouds
272,Ilhabela,BR,2020-08-25 06:01:02,-23.78,-45.36,63.48,80,46,4.03,light rain
273,Surt,LY,2020-08-25 05:56:46,31.21,16.59,79.09,81,51,14.88,light rain
274,Leeton,AU,2020-08-25 06:01:02,-34.57,146.4,57.0,50,0,9.17,clear sky
275,Ratnagiri,IN,2020-08-25 06:01:02,16.98,73.3,83.64,75,72,9.06,broken clouds
276,Bonnyville,CA,2020-08-25 05:59:48,54.27,-110.73,64.4,59,75,18.34,broken clouds
277,Flinders,AU,2020-08-25 05:54:44,-34.58,150.86,60.01,60,51,4.0,broken clouds
278,Oktyabrskoye,RU,2020-08-25 05:57:52,43.06,44.74,64.4,63,0,2.24,clear sky
279,Talara,PE,2020-08-25 05:53:24,-4.58,-81.27,61.07,81,0,15.35,clear sky
280,Strelka,RU,2020-08-25 06:01:03,58.07,93.03,69.57,54,18,3.8,light rain
281,Marzuq,YE,2020-08-25 05:59:55,14.4,46.47,86.85,39,74,7.14,broken clouds
282,Talnakh,RU,2020-08-25 05:55:16,69.49,88.4,66.2,63,40,15.66,scattered clouds
283,Raton,US,2020-08-25 05:57:02,36.9,-104.44,66.2,42,1,6.93,clear sky
284,Springbok,ZA,2020-08-25 06:01:04,-29.66,17.89,45.01,64,0,1.81,clear sky
285,Tilichiki,RU,2020-08-25 05:53:29,60.47,166.1,48.24,53,99,15.86,overcast clouds
286,Krasnoye,UA,2020-08-25 06:01:05,49.91,24.61,62.6,93,86,2.24,overcast clouds
287,Cooma,AU,2020-08-25 06:01:05,-36.23,149.13,48.2,42,3,11.41,clear sky
288,Oussouye,SN,2020-08-25 06:01:05,12.48,-16.55,77.59,88,78,5.84,broken clouds
289,Gourcy,BF,2020-08-25 06:01:06,13.22,-2.35,73.26,86,100,2.71,light rain
290,Porto Murtinho,BR,2020-08-25 06:01:06,-21.7,-57.88,72.09,63,0,7.09,clear sky
291,Banamba,ML,2020-08-25 06:01:06,13.55,-7.45,72.84,89,96,12.53,light rain
292,Chirawa,IN,2020-08-25 06:01:06,28.24,75.64,88.68,59,31,10.45,scattered clouds
293,Jiwani,PK,2020-08-25 06:01:07,25.05,61.74,83.05,75,99,4.32,overcast clouds
294,Lata,PT,2020-08-25 06:01:07,40.16,-8.33,59.0,88,3,1.43,clear sky
295,Sigli,ID,2020-08-25 06:01:07,5.38,95.96,84.7,71,44,5.73,light rain
296,Marovoay,MG,2020-08-25 06:01:07,-16.1,46.63,77.0,61,38,8.05,scattered clouds
297,Pevek,RU,2020-08-25 05:53:51,69.7,170.31,37.9,97,100,3.83,overcast clouds
298,Vilhena,BR,2020-08-25 06:01:08,-12.74,-60.15,70.41,48,3,2.91,clear sky
299,Zyryanovsk,KZ,2020-08-25 06:01:08,49.74,84.27,62.47,82,90,3.87,light rain
300,Hami,CN,2020-08-25 05:53:56,42.8,93.45,96.17,11,25,5.26,scattered clouds
301,Porto Seguro,BR,2020-08-25 06:01:08,-16.45,-39.06,60.8,87,10,6.93,clear sky
302,Lac Du Bonnet,CA,2020-08-25 06:01:09,50.25,-96.06,66.99,99,19,5.64,few clouds
303,Anadyr,RU,2020-08-25 05:54:37,64.75,177.48,55.4,71,40,13.42,scattered clouds
304,Hofn,IS,2020-08-25 05:55:08,64.25,-15.21,49.14,83,40,2.01,scattered clouds
305,Andros Town,BS,2020-08-25 06:00:14,24.7,-77.77,84.2,83,40,11.41,scattered clouds
306,Sao Joao Da Barra,BR,2020-08-25 05:53:10,-21.64,-41.05,62.56,79,1,13.47,clear sky
307,Astaneh-Ye Ashrafiyeh,IR,2020-08-25 06:01:09,37.26,49.94,71.6,64,40,4.7,scattered clouds
308,Bathsheba,BB,2020-08-25 05:54:09,13.22,-59.52,82.4,78,40,13.87,scattered clouds
309,Yuli,NG,2020-08-25 06:01:10,9.7,10.27,68.81,90,100,3.62,overcast clouds
310,Mildura,AU,2020-08-25 05:54:34,-34.2,142.15,60.01,48,28,4.7,scattered clouds
311,Buzmeyin,TM,2020-08-25 06:01:11,38.05,58.21,75.2,41,90,11.41,overcast clouds
312,Christchurch,NZ,2020-08-25 05:55:15,-43.53,172.63,48.0,75,64,18.34,light rain
313,Kenai,US,2020-08-25 06:01:11,60.55,-151.26,59.0,71,75,6.93,broken clouds
314,Nuuk,GL,2020-08-25 06:01:11,64.18,-51.72,41.0,93,67,8.05,broken clouds
315,Oranjestad,AW,2020-08-25 06:01:12,12.52,-70.03,82.83,80,66,20.67,broken clouds
316,Karacabey,TR,2020-08-25 06:01:12,40.22,28.4,75.2,73,40,14.99,scattered clouds
317,Auki,SB,2020-08-25 05:55:44,-8.77,160.7,83.71,72,58,2.51,light rain
318,Yanam,IN,2020-08-25 06:01:12,16.73,82.22,87.8,70,75,13.87,broken clouds
319,Mogocha,RU,2020-08-25 06:01:12,53.73,119.77,52.81,91,100,6.64,overcast clouds
320,Esmeralda,CU,2020-08-25 06:01:13,21.85,-78.12,77.0,100,20,6.93,few clouds
321,Vanimo,PG,2020-08-25 05:53:58,-2.67,141.3,84.0,66,86,7.0,overcast clouds
322,Emerald,AU,2020-08-25 06:01:13,-23.53,148.17,78.8,13,0,6.93,clear sky
323,Beloha,MG,2020-08-25 05:57:30,-25.17,45.05,74.61,61,0,3.27,clear sky
324,Siniscola,IT,2020-08-25 06:01:13,40.57,9.69,73.4,64,44,13.87,scattered clouds
325,Trincomalee,LK,2020-08-25 06:01:14,8.57,81.23,88.59,59,100,5.53,overcast clouds
326,Mersing,MY,2020-08-25 06:01:14,2.43,103.84,89.6,75,40,6.93,scattered clouds
327,Westport,US,2020-08-25 05:54:18,41.14,-73.36,78.8,74,1,4.7,clear sky
328,Fortuna,US,2020-08-25 05:57:00,40.6,-124.16,55.0,100,40,2.82,scattered clouds
329,Ponta Delgada,PT,2020-08-25 05:53:23,37.73,-25.67,73.4,88,40,8.05,scattered clouds
330,Zaysan,KZ,2020-08-25 06:01:15,47.47,84.87,81.23,32,100,24.4,overcast clouds
331,Dingle,PH,2020-08-25 05:54:07,11.0,122.67,88.48,71,59,10.27,broken clouds
332,Kahului,US,2020-08-25 05:53:31,20.89,-156.47,82.4,61,40,14.99,scattered clouds
333,Adra,ES,2020-08-25 06:01:16,36.75,-3.02,77.0,73,20,1.68,few clouds
334,Jahazpur,IN,2020-08-25 06:01:16,25.62,75.28,76.98,85,99,11.45,light rain
335,Sehithwa,BW,2020-08-25 06:01:16,-20.47,22.72,63.28,36,0,6.71,clear sky
336,Luganville,VU,2020-08-25 05:55:08,-15.53,167.17,82.4,83,75,3.36,broken clouds
337,Airai,TL,2020-08-25 05:55:16,-8.93,125.41,73.38,41,0,8.21,clear sky
338,Santiago Del Estero,AR,2020-08-25 05:54:11,-27.8,-64.26,73.29,53,95,10.4,overcast clouds
339,Goderich,CA,2020-08-25 05:55:42,43.75,-81.72,75.0,84,42,7.72,light rain
340,Najran,SA,2020-08-25 05:59:21,17.49,44.13,89.6,21,75,7.38,broken clouds
341,Ust-Maya,RU,2020-08-25 06:01:17,60.42,134.53,58.82,36,14,5.99,few clouds
342,Saint-Louis,SN,2020-08-25 05:55:35,16.33,-15.0,82.35,74,61,12.12,broken clouds
343,Agirish,RU,2020-08-25 05:55:18,61.92,63.02,55.4,83,100,5.64,overcast clouds
344,Independence,US,2020-08-25 06:01:18,39.09,-94.42,82.4,61,1,6.93,clear sky
345,Codrington,AU,2020-08-25 05:55:24,-38.27,141.97,53.53,73,57,12.08,broken clouds
346,Manta,EC,2020-08-25 06:01:18,-0.95,-80.73,68.0,88,75,11.41,broken clouds
347,Taltal,CL,2020-08-25 05:53:57,-25.4,-70.48,50.49,73,0,3.2,clear sky
348,Bac Lieu,VN,2020-08-25 06:01:19,9.29,105.72,90.0,61,69,8.7,broken clouds
349,Tucuman,AR,2020-08-25 06:01:19,-26.82,-65.22,59.0,51,78,9.17,smoke
350,Lupiro,TZ,2020-08-25 06:01:19,-8.38,36.67,76.3,60,50,5.68,scattered clouds
351,Saint-Augustin,CA,2020-08-25 05:54:50,51.23,-58.65,52.21,95,0,6.73,clear sky
352,Broken Hill,AU,2020-08-25 05:55:03,-31.95,141.43,57.2,35,0,8.05,clear sky
353,Yantal,RU,2020-08-25 06:01:20,56.85,105.25,73.13,44,96,3.78,overcast clouds
354,Kidal,ML,2020-08-25 05:55:36,18.44,1.41,79.18,65,38,3.56,scattered clouds
355,Teya,RU,2020-08-25 06:01:20,60.38,92.63,56.84,89,100,2.37,overcast clouds
356,Luderitz,NA,2020-08-25 05:55:47,-26.65,15.16,54.41,82,0,6.93,clear sky
357,Matane,CA,2020-08-25 06:01:21,48.83,-67.52,64.4,63,90,10.29,overcast clouds
358,Itoman,JP,2020-08-25 05:57:02,26.12,127.67,86.0,84,75,14.99,broken clouds
359,Ajdabiya,LY,2020-08-25 05:53:43,30.76,20.23,77.74,51,0,4.72,clear sky
360,Herat,AF,2020-08-25 05:54:03,34.5,62.0,82.4,30,20,17.22,few clouds
361,Beboto,TD,2020-08-25 06:01:21,8.27,16.94,68.77,98,100,4.21,moderate rain
362,Show Low,US,2020-08-25 05:59:21,34.25,-110.03,69.8,37,20,6.93,few clouds
363,Marsh Harbour,BS,2020-08-25 06:01:22,26.54,-77.06,83.64,82,49,14.16,scattered clouds
364,Talcahuano,CL,2020-08-25 05:56:53,-36.72,-73.12,51.8,81,99,16.11,light rain
365,Bonthe,SL,2020-08-25 05:54:29,7.53,-12.51,76.44,83,95,10.07,overcast clouds
366,Rayachoti,IN,2020-08-25 06:01:23,14.05,78.75,86.0,66,75,6.93,haze
367,Coquimbo,CL,2020-08-25 05:56:36,-29.95,-71.34,52.59,78,3,4.21,clear sky
368,Pokhara,NP,2020-08-25 06:01:23,28.23,83.98,83.55,66,99,3.22,overcast clouds
369,Qaqortoq,GL,2020-08-25 05:53:28,60.72,-46.03,41.0,80,75,2.24,broken clouds
370,Ostrovnoy,RU,2020-08-25 05:53:53,68.05,39.51,59.32,69,12,8.61,few clouds
371,Aykhal,RU,2020-08-25 05:54:19,66.0,111.5,62.6,27,35,2.24,scattered clouds
372,Necochea,AR,2020-08-25 05:53:49,-38.55,-58.74,55.0,90,100,5.01,overcast clouds
373,Darnah,LY,2020-08-25 06:01:24,32.77,22.64,80.76,71,0,13.91,clear sky
374,Iskateley,RU,2020-08-25 06:01:24,67.68,53.15,59.11,84,100,3.67,overcast clouds
375,Butaritari,KI,2020-08-25 05:54:05,3.07,172.79,82.22,68,100,6.96,overcast clouds
376,Marfino,RU,2020-08-25 06:01:24,55.7,37.38,64.0,100,90,6.71,overcast clouds
377,Morant Bay,JM,2020-08-25 06:01:25,17.88,-76.41,82.4,74,20,11.41,few clouds
378,Takoradi,GH,2020-08-25 06:01:25,4.88,-1.76,72.45,90,95,7.14,overcast clouds
379,Krasnoshchekovo,RU,2020-08-25 06:01:25,51.67,82.73,55.42,88,100,6.24,moderate rain
380,Waddan,LY,2020-08-25 06:01:25,29.16,16.14,73.49,83,18,6.42,few clouds
381,Ryotsu,JP,2020-08-25 05:55:10,38.08,138.43,86.0,70,86,8.05,overcast clouds
382,Winslow,US,2020-08-25 05:58:13,35.02,-110.7,80.6,30,1,6.93,clear sky
383,Antofagasta,CL,2020-08-25 05:54:06,-23.65,-70.4,53.6,66,4,5.82,clear sky
384,Chotesov,CZ,2020-08-25 06:01:26,49.65,13.2,54.0,87,0,3.02,clear sky
385,Ahipara,NZ,2020-08-25 05:54:23,-35.17,173.17,56.43,75,9,15.37,clear sky
386,Lepley,RU,2020-08-25 06:01:26,54.31,42.86,65.75,85,99,5.91,overcast clouds
387,Asau,RO,2020-08-25 05:55:46,46.43,26.4,64.99,91,87,2.13,overcast clouds
388,Nalut,LY,2020-08-25 05:54:28,30.33,10.85,75.22,37,0,11.12,clear sky
389,Wejherowo,PL,2020-08-25 06:00:51,54.61,18.24,60.01,87,75,12.75,broken clouds
390,Sadri,IN,2020-08-25 06:01:27,25.18,73.43,79.74,79,94,15.73,overcast clouds
391,Jalu,LY,2020-08-25 06:01:28,29.03,21.55,78.31,52,0,7.05,clear sky
392,Cabo San Lucas,MX,2020-08-25 05:53:20,22.89,-109.91,80.01,84,0,3.0,clear sky
393,Parana,AR,2020-08-25 06:01:28,-31.73,-60.52,70.0,61,100,1.99,overcast clouds
394,Mian Channun,PK,2020-08-25 06:00:58,30.44,72.35,99.32,39,1,8.23,clear sky
395,Lethem,GY,2020-08-25 05:53:49,3.38,-59.8,74.41,84,98,4.81,overcast clouds
396,Richards Bay,ZA,2020-08-25 05:58:12,-28.78,32.04,65.91,71,25,4.72,scattered clouds
397,Dudinka,RU,2020-08-25 06:01:29,69.41,86.18,66.2,63,40,15.66,scattered clouds
398,Wicklow,IE,2020-08-25 06:01:29,53.0,-6.42,60.01,93,75,21.92,broken clouds
399,Whitianga,NZ,2020-08-25 06:01:29,-36.83,175.7,55.0,89,24,8.01,few clouds
400,Aripuana,BR,2020-08-25 05:49:50,-9.17,-60.63,71.8,45,0,2.42,clear sky
401,Wasilla,US,2020-08-25 06:01:30,61.58,-149.44,55.4,100,75,1.92,mist
402,Olafsvik,IS,2020-08-25 05:59:51,64.89,-23.71,47.34,81,0,3.31,clear sky
403,Aksu,CN,2020-08-25 05:55:22,41.12,80.26,95.43,14,0,3.8,clear sky
404,Allapalli,IN,2020-08-25 06:01:30,19.42,80.07,86.72,71,77,6.55,light rain
405,Aras,ES,2020-08-25 05:54:12,42.56,-2.36,55.4,87,14,1.12,few clouds
406,Sirjan,IR,2020-08-25 06:01:31,29.45,55.68,88.09,21,0,5.06,clear sky
407,Buala,SB,2020-08-25 05:54:18,-8.14,159.59,83.95,70,38,4.25,light rain
408,Hambantota,LK,2020-08-25 05:53:39,6.12,81.12,91.4,59,20,11.41,few clouds
409,Sosva,RU,2020-08-25 06:01:31,59.18,61.86,57.7,97,100,5.28,moderate rain
410,Berlevag,NO,2020-08-25 05:54:31,70.86,29.09,53.6,66,75,14.99,broken clouds
411,Hastings,GB,2020-08-25 06:01:32,50.86,0.57,62.6,88,100,18.34,light rain
412,Dengfeng,CN,2020-08-25 06:01:32,34.46,113.03,87.4,44,94,4.85,overcast clouds
413,Atasu,KZ,2020-08-25 05:59:27,48.68,71.64,67.24,46,48,15.14,scattered clouds
414,Walvis Bay,NA,2020-08-25 05:57:44,-22.96,14.51,54.0,93,90,2.24,overcast clouds
415,Portland,US,2020-08-25 05:54:10,45.52,-122.68,66.2,59,20,6.93,few clouds
416,Marsa Matruh,EG,2020-08-25 05:57:55,31.35,27.25,73.4,83,0,0.78,clear sky
417,Tuatapere,NZ,2020-08-25 05:54:18,-46.13,167.68,45.0,72,96,11.01,light rain
418,Wanlaweyn,SO,2020-08-25 06:01:33,2.62,44.89,80.64,66,63,15.73,broken clouds
419,Maceio,BR,2020-08-25 05:57:37,-9.67,-35.74,66.2,100,1,4.7,clear sky
420,Afikpo,NG,2020-08-25 06:01:33,5.89,7.94,70.39,97,80,0.72,broken clouds
421,Isangel,VU,2020-08-25 05:54:11,-19.55,169.27,75.2,83,98,10.29,overcast clouds
422,Mackay,AU,2020-08-25 05:55:24,-21.15,149.2,73.99,49,16,17.22,few clouds
423,Joshimath,IN,2020-08-25 05:55:44,30.57,79.57,77.02,54,36,6.76,light rain
424,Mogadishu,SO,2020-08-25 05:57:29,2.04,45.34,77.0,73,75,13.87,broken clouds
425,Nipawin,CA,2020-08-25 06:01:34,53.37,-104.0,53.6,100,1,10.29,clear sky
426,Atessa,IT,2020-08-25 06:01:34,42.07,14.45,73.0,68,35,3.0,scattered clouds
427,Abalak,RU,2020-08-25 06:01:35,58.13,68.59,63.36,60,35,5.66,scattered clouds
428,Porto Torres,IT,2020-08-25 06:01:35,40.84,8.4,62.6,88,65,1.12,broken clouds
429,Halifax,CA,2020-08-25 05:54:33,44.65,-63.57,66.0,86,97,1.01,light rain
430,Aswan,EG,2020-08-25 05:56:51,24.09,32.91,92.82,17,2,7.58,clear sky
431,Fort Nelson,CA,2020-08-25 05:53:35,58.81,-122.7,51.8,100,75,3.36,fog
432,Pacific Grove,US,2020-08-25 05:51:49,36.62,-121.92,60.01,97,1,1.7,clear sky
433,Kousseri,CM,2020-08-25 06:01:36,12.08,15.03,77.0,78,75,17.22,thunderstorm with rain
434,Lao Cai,VN,2020-08-25 05:58:34,22.48,103.95,96.55,47,89,0.51,light rain
435,Pochutla,MX,2020-08-25 05:55:33,15.74,-96.47,72.0,96,100,3.0,moderate rain
436,Haines Junction,CA,2020-08-25 05:55:09,60.75,-137.51,46.26,82,12,4.88,few clouds
437,Kropotkin,RU,2020-08-25 06:01:37,45.44,40.58,78.82,25,0,17.05,clear sky
438,Vytegra,RU,2020-08-25 05:57:19,61.01,36.45,60.08,81,41,10.58,scattered clouds
439,Vestmanna,FO,2020-08-25 06:01:37,62.16,-7.17,42.8,93,36,8.05,scattered clouds
440,Kultuk,RU,2020-08-25 06:01:37,51.72,103.7,67.14,57,99,3.02,light rain
441,Kuusamo,FI,2020-08-25 05:54:59,65.97,29.18,48.2,81,0,9.17,clear sky
442,Coatepec,MX,2020-08-25 06:00:30,19.45,-96.97,65.68,85,100,1.83,light rain
443,Santa Maria Del Oro,MX,2020-08-25 05:54:33,25.93,-105.37,63.77,61,4,7.38,clear sky
444,Cabedelo,BR,2020-08-25 06:01:38,-6.98,-34.83,68.0,94,0,5.82,clear sky
445,Rocha,UY,2020-08-25 05:57:01,-34.48,-54.33,56.25,87,77,13.76,broken clouds
446,Moerai,PF,2020-08-25 06:01:39,-22.43,-151.33,69.53,80,27,16.58,scattered clouds
447,Kapatalan,PH,2020-08-25 06:01:39,14.47,121.49,91.0,66,14,17.22,few clouds
448,Skibbereen,IE,2020-08-25 06:01:39,51.55,-9.27,59.0,93,75,25.28,light intensity drizzle
449,Denpasar,ID,2020-08-25 06:00:37,-8.65,115.22,84.2,74,40,11.41,scattered clouds
450,Amapa,BR,2020-08-25 06:01:39,1.0,-52.0,70.59,98,50,1.32,light rain
451,Cockburn Town,TC,2020-08-25 05:55:57,21.46,-71.14,83.01,76,0,18.16,clear sky
452,Ndele,CF,2020-08-25 05:58:09,8.41,20.65,69.76,97,100,2.1,light rain
453,Muroto,JP,2020-08-25 05:59:32,33.28,134.15,82.4,88,75,6.93,light intensity shower rain
454,Banda Aceh,ID,2020-08-25 05:55:28,5.56,95.32,86.36,72,56,11.97,broken clouds
455,Hvolsvollur,IS,2020-08-25 05:56:35,63.75,-20.22,43.03,85,50,3.44,scattered clouds
456,Son La,VN,2020-08-25 06:01:40,21.32,103.9,86.41,61,98,3.11,light rain
457,Poum,NC,2020-08-25 05:57:04,-20.23,164.02,71.49,77,96,16.28,overcast clouds
458,Malakal,SS,2020-08-25 06:01:41,9.53,31.66,76.53,86,97,2.44,overcast clouds
459,Biloela,AU,2020-08-25 06:01:41,-24.42,150.5,70.93,25,0,14.47,clear sky
460,Nanzhang,CN,2020-08-25 06:01:41,31.78,111.84,87.89,55,99,5.7,overcast clouds
461,Bondoukou,CI,2020-08-25 06:01:42,8.03,-2.8,68.76,93,100,7.23,overcast clouds
462,Contai,IN,2020-08-25 06:01:42,21.78,87.75,86.86,77,100,7.09,moderate rain
463,Manggar,ID,2020-08-25 06:01:42,-2.88,108.27,84.7,70,22,15.52,few clouds
464,Boden,SE,2020-08-25 06:01:42,65.83,21.69,48.2,76,0,5.82,clear sky
465,Dagana,MR,2020-08-25 06:01:43,16.52,-15.51,82.36,75,68,11.74,broken clouds
466,Ankang,CN,2020-08-25 05:58:16,32.68,109.02,86.2,57,52,0.63,broken clouds
467,Tuy Hoa,VN,2020-08-25 05:59:41,13.08,109.3,94.66,49,90,5.99,overcast clouds
468,Sikasso,ML,2020-08-25 06:01:43,10.92,-7.0,71.04,94,84,6.89,light rain
469,Yeppoon,AU,2020-08-25 05:58:15,-23.13,150.73,78.8,24,51,4.7,broken clouds
470,Tabou,CI,2020-08-25 05:56:28,4.42,-7.35,75.11,81,100,8.88,overcast clouds
471,Kavaratti,IN,2020-08-25 05:58:12,10.57,72.64,84.2,70,20,5.82,few clouds
472,Beipiao,CN,2020-08-25 06:01:44,41.79,120.78,86.68,50,99,7.85,overcast clouds
473,Kashan,IR,2020-08-25 05:54:28,33.98,51.44,75.2,29,0,5.88,clear sky
474,Pelym,RU,2020-08-25 06:01:44,61.01,62.0,56.53,96,100,4.88,overcast clouds
475,Dukat,RU,2020-08-25 06:01:45,62.55,155.55,40.33,69,99,6.89,overcast clouds
476,Mizan Teferi,ET,2020-08-25 06:01:45,6.98,35.58,68.32,87,51,0.83,light rain
477,Imeni Poliny Osipenko,RU,2020-08-25 06:01:45,52.42,136.49,54.79,96,100,12.57,overcast clouds
478,Hetauda,NP,2020-08-25 06:01:45,27.43,85.03,82.4,74,75,2.24,broken clouds
479,Egvekinot,RU,2020-08-25 06:01:46,66.32,-179.17,50.88,78,82,5.19,light rain
480,New Ulm,US,2020-08-25 06:01:46,44.31,-94.46,73.4,78,1,4.7,clear sky
481,Yokadouma,CM,2020-08-25 06:01:46,3.52,15.05,67.78,95,100,1.88,light rain
482,Mount Gambier,AU,2020-08-25 05:55:22,-37.83,140.77,53.15,65,36,5.68,scattered clouds
483,Akyab,MM,2020-08-25 06:01:47,20.15,92.9,82.44,82,100,16.4,moderate rain
484,Lagoa,PT,2020-08-25 05:54:49,39.05,-27.98,73.8,90,42,19.73,moderate rain
485,Nandaime,NI,2020-08-25 06:01:47,11.76,-86.05,80.6,83,40,9.17,scattered clouds
486,Etla,MX,2020-08-25 06:01:48,17.06,-96.79,61.12,88,99,1.92,overcast clouds
487,Tura,IN,2020-08-25 05:54:02,25.52,90.22,84.09,84,59,4.83,moderate rain
488,Port Shepstone,ZA,2020-08-25 05:57:13,-30.74,30.45,62.82,72,62,7.43,broken clouds
489,Alihe,CN,2020-08-25 06:01:48,50.57,123.72,70.25,62,75,7.31,light rain
490,Shaunavon,CA,2020-08-25 05:51:57,49.65,-108.42,76.77,35,95,10.27,light rain
491,Wanning,CN,2020-08-25 05:59:48,18.8,110.4,90.91,65,29,14.03,scattered clouds
492,Maloy,NO,2020-08-25 05:57:47,61.94,5.11,53.6,62,75,11.41,shower rain
493,Nyurba,RU,2020-08-25 05:59:19,63.28,118.33,61.79,36,0,5.3,clear sky
494,Prieska,ZA,2020-08-25 05:54:42,-29.66,22.75,61.36,31,0,6.82,clear sky
495,Campohermoso,ES,2020-08-25 06:01:49,36.94,-2.13,77.0,73,20,3.33,few clouds
496,Villa Carlos Paz,AR,2020-08-25 06:01:49,-31.42,-64.5,64.99,59,75,4.7,broken clouds
497,Batemans Bay,AU,2020-08-25 05:58:12,-35.72,150.18,57.0,45,5,1.01,clear sky
498,Teluk Nibung,ID,2020-08-25 06:01:50,3.0,99.82,88.03,59,61,8.88,light rain
499,Lazaro Cardenas,MX,2020-08-25 05:57:49,17.96,-102.2,79.43,85,100,3.85,light rain
500,Nortelandia,BR,2020-08-25 06:01:50,-14.45,-56.8,79.0,35,68,4.0,broken clouds
501,Nelson Bay,AU,2020-08-25 06:01:50,-32.72,152.15,59.0,47,40,9.17,scattered clouds
502,Raudeberg,NO,2020-08-25 05:53:53,61.99,5.14,48.99,94,99,13.98,moderate rain
503,Cervo,ES,2020-08-25 06:01:51,43.67,-7.41,64.0,1,49,7.47,scattered clouds
504,Meulaboh,ID,2020-08-25 05:54:10,4.14,96.13,87.66,61,0,6.35,clear sky
505,Kupang,ID,2020-08-25 05:55:24,-10.17,123.58,91.4,24,20,27.51,few clouds
506,Saint-Joseph,RE,2020-08-25 06:01:51,-21.37,55.62,75.2,64,18,6.93,few clouds
507,Deputatskiy,RU,2020-08-25 05:54:17,69.3,139.9,38.17,73,89,9.04,overcast clouds
508,Bucerias,MX,2020-08-25 06:01:52,20.75,-105.33,82.4,78,90,1.14,overcast clouds
509,Sumbe,AO,2020-08-25 06:01:52,-11.21,13.84,69.58,86,62,1.97,broken clouds
510,Fairbanks,US,2020-08-25 05:55:48,64.84,-147.72,60.8,72,90,3.47,overcast clouds
511,Tromso,NO,2020-08-25 06:00:09,69.65,18.96,48.2,87,75,12.75,broken clouds
512,Nanortalik,GL,2020-08-25 05:53:53,60.14,-45.24,42.53,87,82,7.74,broken clouds
513,Amarpur,IN,2020-08-25 06:01:52,25.03,86.9,92.8,56,100,6.35,light rain
514,Gizo,SB,2020-08-25 05:59:44,-8.1,156.84,84.13,70,6,3.09,light rain
515,Merauke,ID,2020-08-25 05:57:34,-8.47,140.33,81.07,66,54,20.22,broken clouds
516,North Bend,US,2020-08-25 05:57:38,43.41,-124.22,57.2,93,1,12.75,clear sky
517,Bundaberg,AU,2020-08-25 06:01:53,-24.85,152.35,71.6,33,0,12.75,clear sky
518,Ouahigouya,BF,2020-08-25 06:00:33,13.58,-2.42,73.94,77,100,4.16,overcast clouds
519,Sirvintos,LT,2020-08-25 06:01:53,55.05,24.95,60.8,93,75,4.7,broken clouds
520,La Ronge,CA,2020-08-25 05:53:56,55.1,-105.28,55.4,87,75,12.75,broken clouds
521,Saldanha,ZA,2020-08-25 05:53:26,-33.01,17.94,44.6,93,2,2.24,clear sky
522,Korla,CN,2020-08-25 05:54:19,41.76,86.15,95.58,15,0,3.78,clear sky
523,Rimouski,CA,2020-08-25 06:01:14,48.45,-68.52,64.4,63,90,10.29,overcast clouds
524,Mangrol,IN,2020-08-25 05:54:32,21.12,70.12,84.07,78,53,23.8,light rain
525,Peniche,PT,2020-08-25 06:01:55,39.36,-9.38,64.99,92,30,7.0,scattered clouds
526,Tongzi,CN,2020-08-25 06:01:55,28.78,105.09,92.73,46,0,2.01,clear sky
527,Baculin,PH,2020-08-25 06:01:55,7.45,126.58,86.79,70,35,8.63,light rain
528,Mushie,CD,2020-08-25 06:01:55,-3.02,16.9,75.92,82,30,3.18,light rain
529,Songjianghe,CN,2020-08-25 05:58:01,42.19,127.48,76.91,70,85,3.06,light rain
530,Palmer,US,2020-08-25 05:54:27,42.16,-72.33,71.01,100,1,2.44,clear sky
531,Guider,CM,2020-08-25 05:53:45,9.93,13.95,69.82,87,100,4.99,overcast clouds
532,Komsomolskiy,UZ,2020-08-25 06:01:56,40.43,71.72,84.2,26,3,11.41,clear sky
533,Gavle,SE,2020-08-25 06:01:56,60.67,17.14,57.0,64,0,3.0,clear sky
534,Kaeo,NZ,2020-08-25 05:55:35,-35.1,173.78,55.99,3,6,5.99,clear sky
535,Marquette,US,2020-08-25 06:01:57,46.53,-87.63,64.0,93,1,5.82,clear sky
536,Burns Lake,CA,2020-08-25 06:01:57,54.23,-125.75,46.27,88,16,3.04,few clouds
537,Sinnamary,GF,2020-08-25 05:55:49,5.38,-52.95,77.85,87,6,7.18,clear sky
538,Nichinan,JP,2020-08-25 06:01:58,31.6,131.37,91.4,70,20,14.99,shower rain
539,Wewak,PG,2020-08-25 05:53:22,-3.55,143.63,83.3,70,79,5.64,broken clouds
540,Tukrah,LY,2020-08-25 06:01:58,32.53,20.58,80.4,64,0,3.47,clear sky
541,Alofi,NU,2020-08-25 05:53:24,-19.06,-169.92,75.2,83,54,4.7,broken clouds
542,Baruun-Urt,MN,2020-08-25 05:55:34,46.68,113.28,71.76,39,24,6.82,few clouds
543,Vila Velha,BR,2020-08-25 05:54:45,-20.33,-40.29,64.4,77,27,18.34,scattered clouds
544,Bhayavadar,IN,2020-08-25 06:01:59,21.85,70.25,84.25,76,87,21.52,moderate rain
545,Tual,ID,2020-08-25 05:57:06,-5.67,132.75,79.72,78,11,23.29,few clouds
546,Boende,CD,2020-08-25 06:01:16,-0.22,20.87,71.96,95,97,0.72,overcast clouds
547,Ballina,AU,2020-08-25 05:54:39,-28.87,153.57,69.8,55,40,9.17,scattered clouds
548,Impfondo,CG,2020-08-25 06:02:00,1.64,18.07,72.46,94,92,1.48,overcast clouds
549,Sibu,MY,2020-08-25 05:59:51,2.3,111.82,89.6,66,40,4.7,scattered clouds
550,Cairns,AU,2020-08-25 06:02:00,-16.92,145.77,80.01,50,98,13.87,overcast clouds
551,Hirara,JP,2020-08-25 06:02:01,24.8,125.28,87.8,79,75,23.04,broken clouds
552,Hirado,JP,2020-08-25 06:02:01,33.36,129.55,95.0,59,20,13.87,few clouds
553,Akureyri,IS,2020-08-25 06:02:01,65.68,-18.09,32.0,75,0,0.16,mist
554,Ossora,RU,2020-08-25 05:57:28,59.24,163.07,52.77,65,93,3.4,overcast clouds
555,Marawi,PH,2020-08-25 05:53:41,8.0,124.29,86.0,73,86,5.99,light rain
556,Thiers,FR,2020-08-25 06:02:01,45.83,3.5,57.2,76,25,3.36,scattered clouds
557,Letlhakane,BW,2020-08-25 06:02:02,-21.42,25.58,64.44,37,0,6.22,clear sky
558,Buriti Bravo,BR,2020-08-25 06:02:02,-5.84,-43.83,69.03,51,1,3.42,clear sky
559,Yenotayevka,RU,2020-08-25 06:02:02,47.25,47.03,72.0,99,0,5.86,clear sky
560,Puerto Ayacucho,VE,2020-08-25 06:02:02,5.66,-67.62,73.4,91,100,2.62,overcast clouds
561,Kulhudhuffushi,MV,2020-08-25 05:56:49,6.62,73.07,82.96,74,67,12.88,broken clouds
562,Bani,DO,2020-08-25 06:02:02,18.28,-70.33,77.0,85,33,3.0,scattered clouds
563,Kalaleh,IR,2020-08-25 06:02:03,37.38,55.49,71.6,82,75,6.89,broken clouds
564,Roblin,CA,2020-08-25 05:55:46,51.23,-101.36,56.28,89,33,20.15,scattered clouds
565,Ahuimanu,US,2020-08-25 06:02:03,21.44,-157.84,82.4,69,20,8.05,few clouds
566,Manicore,BR,2020-08-25 06:02:03,-5.81,-61.3,73.54,51,8,2.33,clear sky
567,Vaitape,PF,2020-08-25 06:02:04,-16.52,-151.75,77.9,81,10,19.73,light rain
568,Tacna,PE,2020-08-25 06:02:04,-18.01,-70.25,52.14,90,65,4.45,broken clouds
569,Sibolga,ID,2020-08-25 06:02:04,1.74,98.78,86.27,64,43,4.63,light rain
570,Zonguldak,TR,2020-08-25 05:58:39,41.25,31.83,64.4,82,0,3.36,clear sky
571,Saint Anthony,US,2020-08-25 05:55:58,45.02,-93.22,77.0,73,75,3.36,broken clouds
572,Namatanai,PG,2020-08-25 05:54:30,-3.67,152.43,83.25,70,29,6.58,scattered clouds
573,San Jose,US,2020-08-25 05:57:45,37.34,-121.89,70.0,77,75,3.36,smoke
574,Araouane,ML,2020-08-25 06:02:05,18.9,-3.53,84.97,57,95,17.74,overcast clouds
575,Murray Bridge,AU,2020-08-25 06:02:05,-35.12,139.27,57.99,67,0,3.06,clear sky
576,Dandong,CN,2020-08-25 06:02:06,40.13,124.39,81.36,81,94,0.67,light rain
577,Kilindoni,TZ,2020-08-25 06:02:06,-7.91,39.67,76.75,77,51,7.85,broken clouds
578,Fez,MA,2020-08-25 06:02:06,34.04,-5.0,71.6,46,20,5.82,few clouds
579,Mandera,KE,2020-08-25 06:02:06,3.94,41.87,82.35,50,67,17.13,broken clouds
580,Baykit,RU,2020-08-25 05:57:50,61.67,96.37,68.67,42,60,8.68,broken clouds
581,Grand Gaube,MU,2020-08-25 05:54:32,-20.01,57.66,73.99,66,31,8.99,scattered clouds
582,Gualeguay,AR,2020-08-25 06:02:07,-33.14,-59.31,63.57,76,80,11.27,broken clouds
583,Cravo Norte,CO,2020-08-25 06:02:07,6.3,-70.2,75.96,85,78,2.77,broken clouds
584,Preobrazheniye,RU,2020-08-25 06:02:07,42.9,133.91,71.55,92,100,6.64,overcast clouds
585,Reno,US,2020-08-25 06:02:08,39.53,-119.81,78.01,27,1,6.93,clear sky
586,Sampit,ID,2020-08-25 06:02:08,-2.53,112.95,83.52,82,8,5.46,moderate rain
587,Rodrigues Alves,BR,2020-08-25 06:02:08,-7.74,-72.65,68.02,81,2,1.68,clear sky
588,Chamonix-Mont-Blanc,FR,2020-08-25 06:02:08,45.92,6.87,55.4,66,44,3.02,scattered clouds
589,Honningsvag,NO,2020-08-25 06:02:08,70.98,25.97,50.0,76,40,23.04,scattered clouds
590,Avera,US,2020-08-25 05:55:12,33.19,-82.53,75.2,95,75,3.36,light rain
591,Rio Tinto,PT,2020-08-25 06:02:09,41.18,-8.56,62.01,100,3,3.58,clear sky
592,Rudnaya Pristan,RU,2020-08-25 06:02:09,44.36,135.81,64.33,93,100,1.9,light rain
593,Sisimiut,GL,2020-08-25 05:54:01,66.94,-53.67,44.53,81,79,0.81,broken clouds
594,Ketchikan,US,2020-08-25 05:54:46,55.34,-131.65,55.4,100,90,10.29,overcast clouds
595,Benin,BJ,2020-08-25 06:02:09,9.5,2.25,68.79,96,100,2.82,overcast clouds
596,Montivilliers,FR,2020-08-25 06:02:10,49.55,0.19,60.8,82,100,11.41,overcast clouds
597,Vao,NC,2020-08-25 05:54:03,-22.67,167.48,68.95,67,0,14.0,clear sky
598,San Juan De Los Morros,VE,2020-08-25 06:02:10,9.91,-67.35,68.5,95,45,1.74,scattered clouds
599,Moa,CU,2020-08-25 06:02:10,20.66,-74.94,80.55,85,38,10.76,light rain
600,Champerico,GT,2020-08-25 05:55:03,14.3,-91.92,66.99,97,100,11.14,moderate rain
601,Port Lincoln,AU,2020-08-25 05:53:25,-34.73,135.87,55.38,63,51,10.36,broken clouds
602,Taksimo,RU,2020-08-25 06:02:11,56.34,114.88,69.42,44,44,2.46,light rain
603,Kargasok,RU,2020-08-25 05:54:14,59.06,80.86,60.44,75,20,3.36,light rain
604,Malchin,DE,2020-08-25 06:02:11,53.73,12.78,57.99,100,75,4.7,broken clouds
605,Staraya Russa,RU,2020-08-25 06:02:11,57.99,31.36,60.69,87,10,6.13,clear sky
606,San Luis,AR,2020-08-25 06:00:57,-33.3,-66.34,52.93,63,78,0.89,broken clouds
607,Montague,US,2020-08-25 05:59:39,42.54,-72.54,69.01,93,6,1.21,clear sky
608,Wilmington,US,2020-08-25 05:54:49,34.23,-77.94,78.8,88,40,5.93,scattered clouds
609,Eyl,SO,2020-08-25 05:55:00,7.98,49.82,85.1,46,59,25.48,broken clouds
610,Bilibino,RU,2020-08-25 05:55:23,68.05,166.44,40.78,88,100,4.21,overcast clouds
611,Maniitsoq,GL,2020-08-25 06:02:13,65.42,-52.9,44.29,80,67,3.36,broken clouds
612,Bailen,ES,2020-08-25 06:02:13,38.1,-3.78,71.01,69,1,1.99,clear sky
613,Srednekolymsk,RU,2020-08-25 06:02:13,67.45,153.68,42.48,73,100,8.95,overcast clouds
614,Florianopolis,BR,2020-08-25 06:02:13,-27.61,-48.5,60.01,100,24,6.93,few clouds
615,Harbour Breton,CA,2020-08-25 06:02:13,47.48,-55.8,59.0,100,2,6.49,clear sky
616,Ruwi,OM,2020-08-25 06:02:14,23.6,58.55,91.4,63,97,3.36,overcast clouds
617,Sokoto,NG,2020-08-25 06:02:14,13.06,5.24,72.14,91,77,8.95,broken clouds
618,Caravelas,BR,2020-08-25 05:53:48,-17.71,-39.25,64.9,88,1,8.93,light rain
619,Helena,US,2020-08-25 06:00:36,46.59,-112.04,75.2,29,1,8.05,haze
620,Garissa,KE,2020-08-25 06:02:15,-0.45,39.64,78.66,62,78,16.8,broken clouds
621,Beringovskiy,RU,2020-08-25 05:54:31,63.05,179.32,51.73,77,46,4.07,scattered clouds
622,Kpandae,GH,2020-08-25 06:02:15,8.47,-0.01,72.41,87,100,3.65,overcast clouds
623,Cayenne,GF,2020-08-25 05:54:10,4.93,-52.33,73.4,100,40,5.84,scattered clouds
624,Mlimba,TZ,2020-08-25 06:02:15,-8.8,35.82,76.17,56,48,5.91,scattered clouds
625,Bandarbeyla,SO,2020-08-25 05:54:51,9.49,50.81,84.07,53,85,30.02,overcast clouds
626,Krasnoselkup,RU,2020-08-25 05:55:17,65.7,82.47,65.95,51,7,3.76,clear sky
627,Kimbe,PG,2020-08-25 05:58:00,-5.55,150.14,83.41,75,41,2.39,light rain
628,Erenhot,CN,2020-08-25 05:54:20,43.65,111.98,84.94,20,5,8.43,clear sky
629,Tarbagatay,RU,2020-08-25 06:02:16,51.48,107.36,68.0,60,40,13.42,thunderstorm
630,Porto San Giorgio,IT,2020-08-25 06:02:16,43.18,13.79,71.01,84,7,3.0,clear sky
631,San Marcos,US,2020-08-25 06:02:17,33.14,-117.17,73.99,78,90,3.36,overcast clouds
632,Hobyo,SO,2020-08-25 05:53:25,5.35,48.53,81.34,64,84,20.47,broken clouds
633,Ozinki,RU,2020-08-25 06:02:17,51.18,49.68,76.51,34,0,7.27,clear sky
634,Krasnoye-Na-Volge,RU,2020-08-25 06:02:17,57.51,41.24,62.6,88,0,8.95,clear sky
635,Gasa,PS,2020-08-25 05:56:32,31.5,34.47,80.01,37,0,1.99,clear sky
636,Malpe,IN,2020-08-25 05:54:59,13.35,74.72,82.4,83,40,3.36,scattered clouds
637,Altay,CN,2020-08-25 05:53:51,47.87,88.12,69.35,39,96,0.49,light rain
638,Makokou,GA,2020-08-25 06:02:18,0.57,12.86,69.62,96,100,3.22,overcast clouds
639,Muisne,EC,2020-08-25 05:55:37,0.6,-80.03,71.49,84,100,10.65,overcast clouds
640,Fuling,CN,2020-08-25 05:56:52,29.7,107.39,85.3,62,54,4.29,broken clouds
641,Harnosand,SE,2020-08-25 06:02:18,62.63,17.94,51.01,86,41,4.7,scattered clouds
642,Kitimat,CA,2020-08-25 06:02:19,54.05,-128.65,55.4,82,40,14.99,scattered clouds
643,Gisborne,NZ,2020-08-25 06:02:19,-38.65,178.0,53.42,82,88,6.93,overcast clouds
644,Narrabri,AU,2020-08-25 06:02:19,-30.32,149.78,60.8,29,0,10.29,clear sky
645,San Miguel,SV,2020-08-25 06:02:19,13.48,-88.18,73.45,93,89,1.32,overcast clouds
646,Ordzhonikidzevskaya,RU,2020-08-25 06:02:19,43.32,45.05,69.8,63,0,2.24,clear sky
647,Tsiroanomandidy,MG,2020-08-25 05:59:32,-18.77,46.03,71.65,51,0,4.27,clear sky
648,Tazovskiy,RU,2020-08-25 05:54:56,67.47,78.7,54.77,90,100,10.29,overcast clouds
649,Huangcun,CN,2020-08-25 06:02:20,30.01,118.4,88.0,94,6,2.68,light rain
650,Gaoual,GN,2020-08-25 06:02:20,11.75,-13.2,72.97,95,100,0.27,overcast clouds
651,Praia Da Vitoria,PT,2020-08-25 05:57:35,38.73,-27.07,73.4,73,20,9.22,few clouds
652,Bang Racham,TH,2020-08-25 06:02:21,14.89,100.32,91.0,36,65,1.99,broken clouds
653,Babati,TZ,2020-08-25 06:02:21,-4.22,35.75,61.84,75,83,3.04,broken clouds
654,Bilma,NE,2020-08-25 05:54:48,18.69,12.92,90.05,41,45,1.57,scattered clouds
655,Severnoye,RU,2020-08-25 05:54:15,56.35,78.36,61.38,71,36,6.67,light rain
656,Tournon-Sur-Rhone,FR,2020-08-25 06:02:21,45.07,4.83,59.0,71,9,2.71,clear sky
657,Klyuchi,RU,2020-08-25 05:57:21,52.27,79.17,67.35,51,100,11.79,overcast clouds
658,Vila,PT,2020-08-25 05:57:10,42.03,-8.16,53.01,87,0,3.0,clear sky
659,Alice Springs,AU,2020-08-25 06:02:22,-23.7,133.88,87.8,10,0,5.82,clear sky
660,Caernarfon,GB,2020-08-25 06:02:22,53.14,-4.27,60.8,87,100,14.99,heavy intensity rain
661,Semirom,IR,2020-08-25 06:02:22,31.42,51.57,66.99,35,0,6.49,clear sky
662,Noumea,NC,2020-08-25 05:54:13,-22.28,166.46,71.6,56,0,11.41,clear sky
663,Saint-Francois,FR,2020-08-25 06:02:22,46.42,3.91,54.0,93,70,3.36,broken clouds
664,Porbandar,IN,2020-08-25 06:02:23,21.64,69.61,83.97,77,82,24.16,moderate rain
665,Opuwo,NA,2020-08-25 05:55:29,-18.06,13.84,65.44,62,55,2.71,broken clouds
666,Voznesenye,RU,2020-08-25 06:02:23,61.01,35.48,60.22,80,56,11.52,broken clouds
667,Wad Madani,SD,2020-08-25 06:02:23,14.4,33.52,81.27,61,97,18.54,overcast clouds
668,Lashio,MM,2020-08-25 06:02:23,22.93,97.75,71.65,98,100,1.25,moderate rain
669,Balti,MD,2020-08-25 06:02:24,47.76,27.93,69.01,90,100,1.99,light rain
670,Inta,RU,2020-08-25 06:02:24,66.03,60.17,54.75,77,100,3.4,light rain
671,Magan,ES,2020-08-25 05:57:02,39.97,-3.93,78.01,51,9,2.28,clear sky
672,Maragogi,BR,2020-08-25 05:57:39,-9.01,-35.22,69.08,79,0,4.52,clear sky
673,Vestmannaeyjar,IS,2020-08-25 05:54:56,63.44,-20.27,50.04,79,39,4.65,scattered clouds
674,Arivonimamo,MG,2020-08-25 06:02:25,-19.02,47.18,60.8,77,75,5.82,broken clouds
675,Orlik,RU,2020-08-25 06:02:25,52.52,99.83,61.84,37,19,1.45,few clouds
676,Lianzhou,CN,2020-08-25 05:58:16,24.78,112.38,95.04,56,12,2.21,light rain
677,Laurinburg,US,2020-08-25 06:00:09,34.77,-79.46,75.2,94,20,7.92,light rain
678,Abha,SA,2020-08-25 06:02:26,18.22,42.51,75.2,49,20,5.82,few clouds
679,Samarai,PG,2020-08-25 05:56:58,-10.62,150.67,78.69,86,95,16.08,light rain
680,Tessalit,ML,2020-08-25 05:54:28,20.2,1.01,80.51,60,9,9.98,clear sky
681,Schladming,AT,2020-08-25 06:02:26,47.39,13.69,52.0,89,0,1.34,clear sky
682,Okitipupa,NG,2020-08-25 06:02:26,6.5,4.78,71.92,92,99,1.05,overcast clouds
683,Nizwa,OM,2020-08-25 06:02:27,22.93,57.53,92.25,44,100,5.84,overcast clouds
684,Waingapu,ID,2020-08-25 06:02:27,-9.66,120.26,86.13,42,0,19.73,clear sky
685,Tanggu,CN,2020-08-25 06:02:27,39.02,117.65,89.6,49,100,4.47,overcast clouds
686,Svetlogorsk,BY,2020-08-25 06:02:27,52.63,29.73,66.54,72,98,1.54,overcast clouds
687,Nouadhibou,MR,2020-08-25 05:57:07,20.93,-17.03,75.2,88,0,5.82,clear sky
688,Gorom-Gorom,BF,2020-08-25 06:02:28,14.44,-0.24,77.22,76,73,5.37,broken clouds
689,Aljezur,PT,2020-08-25 05:58:16,37.32,-8.8,57.99,96,0,1.01,clear sky
690,Great Falls,US,2020-08-25 06:00:14,47.5,-111.3,75.2,33,1,14.99,clear sky
691,Japura,ID,2020-08-25 06:02:29,-0.32,102.35,91.53,43,78,5.44,broken clouds
692,Wheat Ridge,US,2020-08-25 06:02:29,39.77,-105.08,81.0,43,64,7.63,broken clouds
693,Inhambane,MZ,2020-08-25 05:57:51,-23.86,35.38,73.6,70,0,11.27,clear sky
694,Kem,RU,2020-08-25 06:02:29,64.96,34.58,56.08,68,88,13.62,overcast clouds
695,Yashkul,RU,2020-08-25 06:02:30,46.17,45.34,78.91,25,0,6.98,clear sky
696,Port Keats,AU,2020-08-25 06:02:30,-14.25,129.55,91.85,20,0,2.66,clear sky
697,Havoysund,NO,2020-08-25 05:57:56,71.0,24.66,50.0,76,40,23.04,scattered clouds
